{
  "cities": {
    "tokyo": {
      "name": "Tokyo",
      "name_ja": "東京",
      "lat": 35.6894875,
      "lon": 139.6917064,
      "color": "#C8102E"
    },
    "hakone": {
      "name": "Hakone",
      "name_ja": "箱根",
      "lat": 35.2323553,
      "lon": 139.1069375,
      "color": "#2C7DA0"
    },
    "kyoto": {
      "name": "Kyoto",
      "name_ja": "京都",
      "lat": 35.0212466,
      "lon": 135.7555968,
      "color": "#7B2D26"
    },
    "nara": {
      "name": "Nara",
      "name_ja": "奈良",
      "lat": 34.6853345,
      "lon": 135.8327421,
      "color": "#588157"
    },
    "osaka": {
      "name": "Osaka",
      "name_ja": "大阪",
      "lat": 34.6862971,
      "lon": 135.5196609,
      "color": "#E07A1F"
    },
    "koyasan": {
      "name": "Koyasan",
      "name_ja": "高野山",
      "lat": 34.2166667,
      "lon": 135.5833333,
      "color": "#4A3B6E"
    }
  },
  "places": [
    { "city": "tokyo", "category": "stay",         "name": "Hotel Gracery Shinjuku",         "url": "https://shinjuku.gracery.com/",                          "lat": 35.695306,  "lon": 139.7020539, "note": "Big chain hotel in Kabukicho. Convenient base for first leg in Tokyo \u2014 a few minutes walk from Shinjuku Station." },
    { "city": "tokyo", "category": "stay",         "name": "Keio Plaza Hotel Tokyo",         "url": "https://www.keioplaza.com/",                              "lat": 35.68996,   "lon": 139.6938,    "note": "Used for the final stretch in Tokyo. West Shinjuku, near the Metro Government Building and the limousine bus stop for Narita." },
    { "city": "tokyo", "category": "see",          "name": "Shibuya Crossing",               "url": null,                                                       "lat": 35.6594562, "lon": 139.7006109, "note": "Yes, do it. Best viewed from above \u2014 the Starbucks at Tsutaya or the Shibuya Sky observation deck." },
    { "city": "tokyo", "category": "see",          "name": "Meiji Shrine",                   "url": "https://www.meijijingu.or.jp/en/",                          "lat": 35.6742846, "lon": 139.7022235, "note": "Forested shrine just behind Harajuku. Quiet, gravel paths, big torii. Go in the morning." },
    { "city": "tokyo", "category": "see",          "name": "Imperial Palace",                "url": "https://sankan.kunaicho.go.jp/english/",                    "lat": 35.685175,  "lon": 139.7527995, "note": "The grounds are free to walk; the inner palace only opens twice a year. Easy to combine with Tokyo Station." },
    { "city": "tokyo", "category": "see",          "name": "Tsukiji Outer Market",           "url": "https://www.tsukiji.or.jp/english/",                        "lat": 35.6654861, "lon": 139.7706668, "note": "Inner fish auction moved to Toyosu, but the outer market is still the best place to eat your way through breakfast." },
    { "city": "tokyo", "category": "see",          "name": "Tokyo City View & Sky Deck",     "url": "https://tcv.roppongihills.com/en/",                         "lat": 35.6600692, "lon": 139.7290773, "note": "Roppongi Hills observatory. Open-air sky deck on top \u2014 the only one in Tokyo where you\u2019re actually outside." },
    { "city": "tokyo", "category": "see",          "name": "teamLab Borderless",             "url": "https://www.teamlab.art/e/azabudai/",                       "lat": 35.6627,    "lon": 139.7415,    "note": "Immersive digital art. Originally at Odaiba; relocated to Azabudai Hills in 2024. Book ahead." },
    { "city": "tokyo", "category": "see",          "name": "Tokyo DisneySea",                "url": "https://www.tokyodisneyresort.jp/en/tds/",                  "lat": 35.6267108, "lon": 139.8850779, "note": "If you only do one Disney park ever, do this one. Exists nowhere else. Full day, weekday if possible." },
    { "city": "tokyo", "category": "see",          "name": "Odaiba",                         "url": null,                                                       "lat": 35.6247918, "lon": 139.77671,   "note": "Reclaimed island in Tokyo Bay \u2014 Rainbow Bridge views, oversized shopping malls, a Gundam statue." },
    { "city": "tokyo", "category": "neighborhood", "name": "Shimo-Kitazawa",                 "url": null,                                                       "lat": 35.6615229, "lon": 139.666982,  "note": "Indie bohemian neighborhood west of Shibuya \u2014 thrift shops, tiny cafes, live music. Worth a slow afternoon." },
    { "city": "tokyo", "category": "neighborhood", "name": "Ginza",                          "url": null,                                                       "lat": 35.6721142, "lon": 139.7708253, "note": "Tokyo\u2019s polished shopping district. Streets close to cars on weekend afternoons." },
    { "city": "tokyo", "category": "neighborhood", "name": "Harajuku & Omotesando",          "url": null,                                                       "lat": 35.6716283, "lon": 139.7102847, "note": "Pair Takeshita Street\u2019s teen pop chaos with the tree-lined Omotesando boulevard for a high\u2013low afternoon." },
    { "city": "tokyo", "category": "eat",          "name": "Sushi Bar Yasuda",               "url": "https://www.sushibaryasuda.com/",                            "lat": 35.6659245, "lon": 139.7204101, "note": "Minato omakase counter by the chef who made his name at Sushi Yasuda NYC. Reserve weeks ahead." },
    { "city": "tokyo", "category": "eat",          "name": "Shinjuku Warayakiya",            "url": null,                                                       "lat": 35.692801,  "lon": 139.703271,  "note": "Straw-fired bonito (katsuo no tataki). Big portions, casual, in Shinjuku." },
    { "city": "tokyo", "category": "eat",          "name": "Nakaya (Tsukiji)",               "url": null,                                                       "lat": 35.6633859, "lon": 139.769438,  "note": "Tsukiji outer market spot \u2014 stop for a fresh sashimi breakfast." },
    { "city": "tokyo", "category": "eat",          "name": "Totti Candy Factory",            "url": "https://www.totticandy.com/",                                "lat": 35.6711695, "lon": 139.7045857, "note": "Rainbow cotton candy on Takeshita Street, Harajuku. Touristy and absurd but the photo." },
    { "city": "tokyo", "category": "eat",          "name": "mois cafe",                      "url": null,                                                       "lat": 35.66039,   "lon": 139.6665068, "note": "Tiny neighborhood cafe in Shimo-Kitazawa \u2014 good pit stop while wandering." },
    { "city": "tokyo", "category": "do",           "name": "Samurai Restaurant (ex-Robot)",  "url": "https://samurai-restaurant.tokyo/",                            "lat": 35.6943187, "lon": 139.7028432, "note": "Kabukicho\u2019s legendary neon-and-robots dinner show. Note: the original closed during COVID \u2014 the Samurai Restaurant successor reopened in roughly the same venue." },

    { "city": "hakone", "category": "stay",        "name": "Laforet Club Hakone Gora",       "url": null,                                                       "lat": 35.251121,  "lon": 139.039857,  "note": "Onsen hotel in Gora. Soak, kaiseki dinner, sleep on futon. The whole point of a Hakone stop." },
    { "city": "hakone", "category": "see",         "name": "Hakone (region)",                "url": "https://www.odakyu.jp/english/passes/hakone/",               "lat": 35.2323553, "lon": 139.1069375, "note": "Mountain town two hours from Tokyo \u2014 hot springs, open-air museums, and Mt. Fuji views on a clear day. Use the Hakone Free Pass for the loop." },

    { "city": "kyoto",  "category": "stay",        "name": "The Royal Park Hotel Kyoto Sanjo", "url": "https://www.the-royalpark.jp/the/kyotosanjo/en/",         "lat": 35.008997,  "lon": 135.769547,  "note": "Central Kyoto, steps from Pontocho and the Kamogawa river. Walking distance to Gion." },
    { "city": "kyoto",  "category": "see",         "name": "Fushimi Inari Taisha",           "url": "http://inari.jp/en/",                                       "lat": 34.9671402, "lon": 135.7726717, "note": "The thousand torii gates. Free, open 24/7. Go very early (before 8am) or after sunset to skip the crowds." },
    { "city": "kyoto",  "category": "see",         "name": "Kinkaku-ji (Golden Pavilion)",   "url": "https://www.shokoku-ji.jp/en/kinkakuji/",                   "lat": 35.0393553, "lon": 135.7293265, "note": "The gold-leaf temple by the pond. Quick visit \u2014 30 minutes is plenty \u2014 pair it with Ryoan-ji next door." },
    { "city": "kyoto",  "category": "see",         "name": "Ryoan-ji",                       "url": "http://www.ryoanji.jp/smph/eng/",                            "lat": 35.0344943, "lon": 135.7182634, "note": "Famous Zen rock garden. Sit on the wooden veranda for ten minutes and just look." },
    { "city": "kyoto",  "category": "see",         "name": "Kiyomizu-dera",                  "url": "https://www.kiyomizudera.or.jp/en/",                        "lat": 34.9948561, "lon": 135.7850463, "note": "Wooden temple on stilts above the city. The approach through Higashiyama old town is half the experience." },
    { "city": "kyoto",  "category": "see",         "name": "Arashiyama Bamboo Grove",        "url": null,                                                       "lat": 35.0170149, "lon": 135.6701354, "note": "Western edge of Kyoto. Get there at sunrise \u2014 it\u2019s short and gets shoulder-to-shoulder fast." },
    { "city": "kyoto",  "category": "see",         "name": "Arashiyama Monkey Park Iwatayama", "url": "https://monkeypark.jp/english/",                          "lat": 35.0113346, "lon": 135.6766869, "note": "Climb up the hill above the bamboo grove for wild macaques and a panoramic view of Kyoto. ~30 min hike." },
    { "city": "kyoto",  "category": "see",         "name": "Nishiki Market",                 "url": "https://www.kyoto-nishiki.or.jp/",                          "lat": 35.005008,  "lon": 135.7649016, "note": "Five-block covered food street downtown. Pickles, sweets, sashimi sticks, knives. Great for grazing lunch." },
    { "city": "kyoto",  "category": "neighborhood", "name": "Pontocho Alley",                "url": null,                                                       "lat": 35.0050818, "lon": 135.7710898, "note": "Narrow lantern-lit lane of restaurants along the Kamogawa. Walk it at dusk; pick somewhere with a riverside terrace in season." },
    { "city": "kyoto",  "category": "neighborhood", "name": "Gion",                          "url": null,                                                       "lat": 35.0037623, "lon": 135.7771804, "note": "The old geisha district \u2014 wooden machiya houses, lantern light. Be a respectful tourist; no chasing geiko for photos." },
    { "city": "kyoto",  "category": "eat",         "name": "Yamafuku (shabu-shabu)",         "url": null,                                                       "lat": 35.0071128, "lon": 135.7707992, "note": "Pontocho-area shabu-shabu. Reservation recommended." },
    { "city": "kyoto",  "category": "eat",         "name": "Kikunoi Roan",                   "url": "https://kikunoi.jp/kikunoiweb-en/store/roan/",              "lat": 35.0034513, "lon": 135.7706684, "note": "Roan is the Pontocho outpost of the Michelin-starred Kikunoi \u2014 contemporary kaiseki. Reserve well ahead." },
    { "city": "kyoto",  "category": "eat",         "name": "Yaruki Yakiniku",                "url": null,                                                       "lat": 35.0037163, "lon": 135.7708789, "note": "Casual yakiniku grill-your-own in central Kyoto. Good after a long temple day." },
    { "city": "kyoto",  "category": "eat",         "name": "Nineizaka Sushi Numamoto",       "url": null,                                                       "lat": 34.998247,  "lon": 135.780556,  "note": "Quiet intimate sushi counter on Ninenzaka in Higashiyama. Reserve." },
    { "city": "kyoto",  "category": "do",          "name": "Maiko Evening Performance",      "url": "https://www.veltra.com/en/asia/japan/kyoto/a/100331",       "lat": 34.998918,  "lon": 135.775629,  "note": "Yasakadori Enraku puts on an early-evening maiko dinner show \u2014 a chaperoned, beginner-friendly way to actually see one perform. Booked through Veltra." },
    { "city": "kyoto",  "category": "do",          "name": "Private Kyoto Day Tour",         "url": "https://www.toursbylocals.com/Kyoto-Tours",                  "lat": 35.0212466, "lon": 135.7555968, "note": "A 6-hour private guided day (booked via ToursByLocals) covered Kinkaku-ji, Ryoan-ji, and Kiyomizu-dera. Worth it on day one to get your bearings." },
    { "city": "kyoto",  "category": "drink",       "name": "L\u2019Escamoteur Bar",          "url": null,                                                       "lat": 35.001834,  "lon": 135.769948,  "note": "Dim, theatrical cocktail bar just off Kawaramachi-dori. Excellent nightcap." },

    { "city": "nara",   "category": "see",         "name": "Nara Park",                      "url": null,                                                       "lat": 34.685047,  "lon": 135.843012,  "note": "Day trip from Kyoto (~45 min). 1,200 free-roaming deer that bow for crackers. Combine with Todai-ji on the same walk." },
    { "city": "nara",   "category": "see",         "name": "Todai-ji",                       "url": "http://www.todaiji.or.jp/english/",                          "lat": 34.6890,    "lon": 135.8398,    "note": "The world\u2019s largest wooden building, housing the world\u2019s largest bronze Buddha. Inside Nara Park." },
    { "city": "nara",   "category": "see",         "name": "Kasuga Taisha",                  "url": "https://www.kasugataisha.or.jp/",                            "lat": 34.6816,    "lon": 135.8483,    "note": "Famous lantern shrine inside Nara Park \u2014 thousands of bronze and stone lanterns along a wooded approach." },

    { "city": "osaka",  "category": "stay",        "name": "Fraser Residence Nankai Osaka",  "url": "https://osaka.frasershospitality.com/",                      "lat": 34.6631994, "lon": 135.5005231, "note": "Apartment-style hotel in Namba. Steps from Dotonbori and the Nankai line to Koyasan." },
    { "city": "osaka",  "category": "see",         "name": "Dotonbori",                      "url": null,                                                       "lat": 34.6685155, "lon": 135.5025519, "note": "Osaka\u2019s neon canal-side eating street \u2014 takoyaki, okonomiyaki, the Glico running man. Best at night." },
    { "city": "osaka",  "category": "see",         "name": "Kuromon Ichiba Market",          "url": "https://kuromon.com/",                                      "lat": 34.6653077, "lon": 135.5070109, "note": "Osaka\u2019s \u201ckitchen\u201d \u2014 600m of stalls selling A5 wagyu skewers, uni, fresh oysters. Go hungry." },
    { "city": "osaka",  "category": "eat",         "name": "Ichiran Dotonbori (Honkan)",     "url": "https://en.ichiran.com/",                                    "lat": 34.6685,    "lon": 135.5028,    "note": "The 24-hour tonkotsu chain\u2019s flagship branch in Dotonbori. Order from a vending machine, eat in a solo booth." },

    { "city": "koyasan", "category": "stay",       "name": "Koyasan Syukubo Ekoin",          "url": "https://www.ekoin.jp/en/",                                  "lat": 34.212609,  "lon": 135.593929,  "note": "Working Shingon temple that hosts overnight guests. Vegetarian shojin-ryori dinner, morning fire ceremony, and the cemetery night tour leaves from here. Highlight of the trip." },
    { "city": "koyasan", "category": "see",        "name": "Okunoin Cemetery",               "url": null,                                                       "lat": 34.2156,    "lon": 135.6064,    "note": "Japan\u2019s largest cemetery \u2014 200,000+ moss-covered tombs under towering cedars, leading to the mausoleum of Kobo Daishi. Walk it at night with Ekoin\u2019s monk-led tour, then again at sunrise." },
    { "city": "koyasan", "category": "see",        "name": "Koyasan (Mt. Koya)",             "url": "https://www.koyasan.or.jp/en/",                              "lat": 34.2166667, "lon": 135.5833333, "note": "Mountain-top monastic town founded 1,200 years ago. Access via the Nankai line from Osaka + cable car. Plan one overnight." }
  ]
}
